time(s),x(m),y(m),z(m),vx(m/s),vy(m/s),vz(m/s),q0,q1,q2,q3,roll(rad),pitch(rad),yaw(rad)
0.0000,0.0000,0.0000,0.0000,0.0000,0.0000,0.0000,1.0000,0.0000,0.0000,0.0000,0.0000,0.0000,0.0000
0.0100,0.0000,0.0000,0.0061,0.0000,0.0000,0.9174,1.0000,0.0000,0.0000,0.0000,0.0000,0.0000,0.0000
0.0200,0.0000,0.0000,0.0216,0.0000,0.0000,1.8658,1.0000,0.0000,0.0000,0.0000,0.0000,0.0000,0.0000
0.0300,0.0000,0.0000,0.0467,0.0000,0.0000,2.8452,1.0000,0.0000,0.0000,0.0000,0.0000,0.0000,0.0000
0.0400,0.0000,0.0000,0.0819,0.0000,0.0000,3.8557,1.0000,0.0000,0.0000,0.0000,0.0000,0.0000,0.0000
0.0500,0.0000,0.0000,0.1274,0.0000,0.0000,4.8971,1.0000,0.0000,0.0000,0.0000,0.0000,0.0000,0.0000
0.0600,0.0000,0.0000,0.1835,0.0000,0.0000,5.9696,1.0000,0.0000,0.0000,0.0000,0.0000,0.0000,0.0000
0.0700,0.0000,0.0000,0.2505,0.0000,0.0000,7.0730,1.0000,0.0000,0.0000,0.0000,0.0000,0.0000,0.0000
0.0800,0.0000,0.0000,0.3287,0.0000,0.0000,8.2074,1.0000,0.0000,0.0000,0.0000,0.0000,0.0000,0.0000
0.0900,0.0000,0.0000,0.4186,0.0000,0.0000,9.3727,1.0000,0.0000,0.0000,0.0000,0.0000,0.0000,0.0000
0.1000,0.0000,0.0000,0.5202,0.0000,0.0000,10.5689,1.0000,0.0000,0.0000,0.0000,0.0000,0.0000,0.0000
0.1100,0.0000,0.0000,0.6341,0.0000,0.0000,11.7960,1.0000,0.0000,0.0000,0.0000,0.0000,0.0000,0.0000
0.1200,0.0000,0.0000,0.7604,0.0000,0.0000,13.0538,1.0000,0.0000,0.0000,0.0000,0.0000,0.0000,0.0000
0.1300,0.0000,0.0000,0.8995,0.0000,0.0000,14.3424,1.0000,0.0000,0.0000,0.0000,0.0000,0.0000,0.0000
0.1400,0.0000,0.0000,1.0517,0.0000,0.0000,15.6617,1.0000,0.0000,0.0000,0.0000,0.0000,0.0000,0.0000
0.1500,0.0000,0.0000,1.2173,0.0000,0.0000,17.0116,1.0000,0.0000,0.0000,0.0000,0.0000,0.0000,0.0000
0.1600,0.0000,0.0000,1.3966,0.0000,0.0000,18.3920,1.0000,0.0000,0.0000,0.0000,0.0000,0.0000,0.0000
0.1700,0.0000,0.0000,1.5899,0.0000,0.0000,19.8028,1.0000,0.0000,0.0000,0.0000,0.0000,0.0000,0.0000
0.1800,0.0000,0.0000,1.7975,0.0000,0.0000,21.2440,1.0000,0.0000,0.0000,0.0000,0.0000,0.0000,0.0000
0.1900,0.0000,0.0000,2.0197,0.0000,0.0000,22.7154,1.0000,0.0000,0.0000,0.0000,0.0000,0.0000,0.0000
0.2000,0.0000,0.0000,2.2569,0.0000,0.0000,24.2169,1.0000,0.0000,0.0000,0.0000,0.0000,0.0000,0.0000
0.2100,0.0000,0.0000,2.5091,0.0000,0.0000,25.7264,1.0000,0.0000,0.0000,0.0000,0.0000,0.0000,0.0000
0.2200,0.0000,0.0000,2.7763,0.0000,0.0000,27.2215,1.0000,0.0000,0.0000,0.0000,0.0000,0.0000,0.0000
0.2300,0.0000,0.0000,3.0584,0.0000,0.0000,28.7020,1.0000,0.0000,0.0000,0.0000,0.0000,0.0000,0.0000
0.2400,0.0000,0.0000,3.3553,0.0000,0.0000,30.1680,1.0000,0.0000,0.0000,0.0000,0.0000,0.0000,0.0000
0.2500,0.0000,0.0000,3.6666,0.0000,0.0000,31.6191,1.0000,0.0000,0.0000,0.0000,0.0000,0.0000,0.0000
0.2600,0.0000,0.0000,3.9924,0.0000,0.0000,33.0554,1.0000,0.0000,0.0000,0.0000,0.0000,0.0000,0.0000
0.2700,0.0000,0.0000,4.3324,0.0000,0.0000,34.4766,1.0000,0.0000,0.0000,0.0000,0.0000,0.0000,0.0000
0.2800,0.0000,0.0000,4.6866,0.0000,0.0000,35.8827,1.0000,0.0000,0.0000,0.0000,0.0000,0.0000,0.0000
0.2900,0.0000,0.0000,5.0547,0.0000,0.0000,37.2735,1.0000,0.0000,0.0000,0.0000,0.0000,0.0000,0.0000
0.3000,0.0000,0.0000,5.4366,0.0000,0.0000,38.6489,1.0000,0.0000,0.0000,0.0000,0.0000,0.0000,0.0000
0.3100,0.0000,0.0000,5.8322,0.0000,0.0000,40.0088,1.0000,0.0000,0.0000,0.0000,0.0000,0.0000,0.0000
0.3200,0.0000,0.0000,6.2412,0.0000,0.0000,41.3530,1.0000,0.0000,0.0000,0.0000,0.0000,0.0000,0.0000
0.3300,0.0000,0.0000,6.6636,0.0000,0.0000,42.6816,1.0000,0.0000,0.0000,0.0000,0.0000,0.0000,0.0000
0.3400,0.0000,0.0000,7.0992,0.0000,0.0000,43.9943,1.0000,0.0000,0.0000,0.0000,0.0000,0.0000,0.0000
0.3500,0.0000,0.0000,7.5478,0.0000,0.0000,45.2911,1.0000,0.0000,0.0000,0.0000,0.0000,0.0000,0.0000
0.3600,0.0000,0.0000,8.0093,0.0000,0.0000,46.5719,1.0000,0.0000,0.0000,0.0000,0.0000,0.0000,0.0000
0.3700,0.0000,0.0000,8.4835,0.0000,0.0000,47.8366,1.0000,0.0000,0.0000,0.0000,0.0000,0.0000,0.0000
0.3800,0.0000,0.0000,8.9702,0.0000,0.0000,49.0851,1.0000,0.0000,0.0000,0.0000,0.0000,0.0000,0.0000
0.3900,0.0000,0.0000,9.4692,0.0000,0.0000,50.3174,1.0000,0.0000,0.0000,0.0000,0.0000,0.0000,0.0000
0.4000,0.0000,0.0000,9.9805,0.0000,0.0000,51.5333,1.0000,0.0000,0.0000,0.0000,0.0000,0.0000,0.0000
0.4100,0.0000,0.0000,10.5039,0.0000,0.0000,52.7328,1.0000,0.0000,0.0000,0.0000,0.0000,0.0000,0.0000
0.4200,0.0000,0.0000,11.0391,0.0000,0.0000,53.9158,1.0000,0.0000,0.0000,0.0000,0.0000,0.0000,0.0000
0.4300,0.0000,0.0000,11.5861,0.0000,0.0000,55.0823,1.0000,0.0000,0.0000,0.0000,0.0000,0.0000,0.0000
0.4400,0.0000,0.0000,12.1446,0.0000,0.0000,56.2321,1.0000,0.0000,0.0000,0.0000,0.0000,0.0000,0.0000
0.4500,0.0000,0.0000,12.7144,0.0000,0.0000,57.3653,1.0000,0.0000,0.0000,0.0000,0.0000,0.0000,0.0000
0.4600,0.0000,0.0000,13.2956,0.0000,0.0000,58.4817,1.0000,0.0000,0.0000,0.0000,0.0000,0.0000,0.0000
0.4700,0.0000,0.0000,13.8877,0.0000,0.0000,59.5813,1.0000,0.0000,0.0000,0.0000,0.0000,0.0000,0.0000
0.4800,0.0000,0.0000,14.4908,0.0000,0.0000,60.6642,1.0000,0.0000,0.0000,0.0000,0.0000,0.0000,0.0000
0.4900,0.0000,0.0000,15.1045,0.0000,0.0000,61.7301,1.0000,0.0000,0.0000,0.0000,0.0000,0.0000,0.0000
0.5000,0.0000,0.0000,15.7288,0.0000,0.0000,62.7791,1.0000,0.0000,0.0000,0.0000,0.0000,0.0000,0.0000
0.5100,0.0000,0.0000,16.3635,0.0000,0.0000,63.8112,1.0000,0.0000,0.0000,0.0000,0.0000,0.0000,0.0000
0.5200,0.0000,0.0000,17.0084,0.0000,0.0000,64.8263,1.0000,0.0000,0.0000,0.0000,0.0000,0.0000,0.0000
0.5300,0.0000,0.0000,17.6633,0.0000,0.0000,65.8243,1.0000,0.0000,0.0000,0.0000,0.0000,0.0000,0.0000
0.5400,0.0000,0.0000,18.3281,0.0000,0.0000,66.8054,1.0000,0.0000,0.0000,0.0000,0.0000,0.0000,0.0000
0.5500,0.0000,0.0000,19.0026,0.0000,0.0000,67.7693,1.0000,0.0000,0.0000,0.0000,0.0000,0.0000,0.0000
0.5600,0.0000,0.0000,19.6867,0.0000,0.0000,68.7161,1.0000,0.0000,0.0000,0.0000,0.0000,0.0000,0.0000
0.5700,0.0000,0.0000,20.3800,0.0000,0.0000,69.6459,1.0000,0.0000,0.0000,0.0000,0.0000,0.0000,0.0000
0.5800,0.0000,0.0000,21.0826,0.0000,0.0000,70.5585,1.0000,0.0000,0.0000,0.0000,0.0000,0.0000,0.0000
0.5900,0.0000,0.0000,21.7942,0.0000,0.0000,71.4540,1.0000,0.0000,0.0000,0.0000,0.0000,0.0000,0.0000
0.6000,0.0000,0.0000,22.5146,0.0000,0.0000,72.3323,1.0000,0.0000,0.0000,0.0000,0.0000,0.0000,0.0000
0.6100,0.0000,0.0000,23.2436,0.0000,0.0000,73.1935,1.0000,0.0000,0.0000,0.0000,0.0000,0.0000,0.0000
0.6200,0.0000,0.0000,23.9812,0.0000,0.0000,74.0375,1.0000,0.0000,0.0000,0.0000,0.0000,0.0000,0.0000
0.6300,0.0000,0.0000,24.7271,0.0000,0.0000,74.8643,1.0000,0.0000,0.0000,0.0000,0.0000,0.0000,0.0000
0.6400,0.0000,0.0000,25.4812,0.0000,0.0000,75.6740,1.0000,0.0000,0.0000,0.0000,0.0000,0.0000,0.0000
0.6500,0.0000,0.0000,26.2432,0.0000,0.0000,76.4666,1.0000,0.0000,0.0000,0.0000,0.0000,0.0000,0.0000
0.6600,0.0000,0.0000,27.0131,0.0000,0.0000,77.2420,1.0000,0.0000,0.0000,0.0000,0.0000,0.0000,0.0000
0.6700,0.0000,0.0000,27.7906,0.0000,0.0000,78.0003,1.0000,0.0000,0.0000,0.0000,0.0000,0.0000,0.0000
0.6800,0.0000,0.0000,28.5755,0.0000,0.0000,78.7414,1.0000,0.0000,0.0000,0.0000,0.0000,0.0000,0.0000
0.6900,0.0000,0.0000,29.3678,0.0000,0.0000,79.4655,1.0000,0.0000,0.0000,0.0000,0.0000,0.0000,0.0000
0.7000,0.0000,0.0000,30.1671,0.0000,0.0000,80.1724,1.0000,0.0000,0.0000,0.0000,0.0000,0.0000,0.0000
0.7100,0.0000,0.0000,30.9735,0.0000,0.0000,80.8623,1.0000,0.0000,0.0000,0.0000,0.0000,0.0000,0.0000
0.7200,0.0000,0.0000,31.7866,0.0000,0.0000,81.5352,1.0000,0.0000,0.0000,0.0000,0.0000,0.0000,0.0000
0.7300,0.0000,0.0000,32.6063,0.0000,0.0000,82.1910,1.0000,0.0000,0.0000,0.0000,0.0000,0.0000,0.0000
0.7400,0.0000,0.0000,33.4325,0.0000,0.0000,82.8298,1.0000,0.0000,0.0000,0.0000,0.0000,0.0000,0.0000
0.7500,0.0000,0.0000,34.2650,0.0000,0.0000,83.4517,1.0000,0.0000,0.0000,0.0000,0.0000,0.0000,0.0000
0.7600,0.0000,0.0000,35.1036,0.0000,0.0000,84.0566,1.0000,0.0000,0.0000,0.0000,0.0000,0.0000,0.0000
0.7700,0.0000,0.0000,35.9481,0.0000,0.0000,84.6446,1.0000,0.0000,0.0000,0.0000,0.0000,0.0000,0.0000
0.7800,0.0000,0.0000,36.7983,0.0000,0.0000,85.2158,1.0000,0.0000,0.0000,0.0000,0.0000,0.0000,0.0000
0.7900,0.0000,0.0000,37.6542,0.0000,0.0000,85.7701,1.0000,0.0000,0.0000,0.0000,0.0000,0.0000,0.0000
0.8000,0.0000,0.0000,38.5155,0.0000,0.0000,86.3076,1.0000,0.0000,0.0000,0.0000,0.0000,0.0000,0.0000
0.8100,0.0000,0.0000,39.3820,0.0000,0.0000,86.8139,1.0000,0.0000,0.0000,0.0000,0.0000,0.0000,0.0000
0.8200,0.0000,0.0000,40.2532,0.0000,0.0000,87.2745,1.0000,0.0000,0.0000,0.0000,0.0000,0.0000,0.0000
0.8300,0.0000,0.0000,41.1288,0.0000,0.0000,87.6898,1.0000,0.0000,0.0000,0.0000,0.0000,0.0000,0.0000
0.8400,0.0000,0.0000,42.0082,0.0000,0.0000,88.0597,1.0000,0.0000,0.0000,0.0000,0.0000,0.0000,0.0000
0.8500,0.0000,0.0000,42.8910,0.0000,0.0000,88.3845,1.0000,0.0000,0.0000,0.0000,0.0000,0.0000,0.0000
0.8600,0.0000,0.0000,43.7767,0.0000,0.0000,88.6642,1.0000,0.0000,0.0000,0.0000,0.0000,0.0000,0.0000
0.8700,0.0000,0.0000,44.6650,0.0000,0.0000,88.8992,1.0000,0.0000,0.0000,0.0000,0.0000,0.0000,0.0000
0.8800,0.0000,0.0000,45.5553,0.0000,0.0000,89.0894,1.0000,0.0000,0.0000,0.0000,0.0000,0.0000,0.0000
0.8900,0.0000,0.0000,46.4472,0.0000,0.0000,89.2351,1.0000,0.0000,0.0000,0.0000,0.0000,0.0000,0.0000
0.9000,0.0000,0.0000,47.3402,0.0000,0.0000,89.3365,1.0000,0.0000,0.0000,0.0000,0.0000,0.0000,0.0000
0.9100,0.0000,0.0000,48.2340,0.0000,0.0000,89.3936,1.0000,0.0000,0.0000,0.0000,0.0000,0.0000,0.0000
0.9200,0.0000,0.0000,49.1281,0.0000,0.0000,89.4068,1.0000,0.0000,0.0000,0.0000,0.0000,0.0000,0.0000
0.9300,0.0000,0.0000,50.0220,0.0000,0.0000,89.3760,1.0000,0.0000,0.0000,0.0000,0.0000,0.0000,0.0000
0.9400,0.0000,0.0000,50.9153,0.0000,0.0000,89.3016,1.0000,0.0000,0.0000,0.0000,0.0000,0.0000,0.0000
0.9500,0.0000,0.0000,51.8075,0.0000,0.0000,89.1835,1.0000,0.0000,0.0000,0.0000,0.0000,0.0000,0.0000
0.9600,0.0000,0.0000,52.6983,0.0000,0.0000,89.0221,1.0000,0.0000,0.0000,0.0000,0.0000,0.0000,0.0000
0.9700,0.0000,0.0000,53.5872,0.0000,0.0000,88.8175,1.0000,0.0000,0.0000,0.0000,0.0000,0.0000,0.0000
0.9800,0.0000,0.0000,54.4738,0.0000,0.0000,88.5698,1.0000,0.0000,0.0000,0.0000,0.0000,0.0000,0.0000
0.9900,0.0000,0.0000,55.3576,0.0000,0.0000,88.2791,1.0000,0.0000,0.0000,0.0000,0.0000,0.0000,0.0000
1.0000,0.0000,0.0000,56.2382,0.0000,0.0000,87.9457,1.0000,0.0000,0.0000,0.0000,0.0000,0.0000,0.0000
1.0100,0.0000,0.0000,57.1153,0.0000,0.0000,87.5919,1.0000,0.0000,0.0000,0.0000,0.0000,0.0000,0.0000
1.0200,0.0000,0.0000,57.9889,0.0000,0.0000,87.2403,1.0000,0.0000,0.0000,0.0000,0.0000,0.0000,0.0000
1.0300,0.0000,0.0000,58.8589,0.0000,0.0000,86.8907,1.0000,0.0000,0.0000,0.0000,0.0000,0.0000,0.0000
1.0400,0.0000,0.0000,59.7255,0.0000,0.0000,86.5431,1.0000,0.0000,0.0000,0.0000,0.0000,0.0000,0.0000
1.0500,0.0000,0.0000,60.5886,0.0000,0.0000,86.1976,1.0000,0.0000,0.0000,0.0000,0.0000,0.0000,0.0000
1.0600,0.0000,0.0000,61.4483,0.0000,0.0000,85.8540,1.0000,0.0000,0.0000,0.0000,0.0000,0.0000,0.0000
1.0700,0.0000,0.0000,62.3046,0.0000,0.0000,85.5124,1.0000,0.0000,0.0000,0.0000,0.0000,0.0000,0.0000
1.0800,0.0000,0.0000,63.1574,0.0000,0.0000,85.1728,1.0000,0.0000,0.0000,0.0000,0.0000,0.0000,0.0000
1.0900,0.0000,0.0000,64.0069,0.0000,0.0000,84.8351,1.0000,0.0000,0.0000,0.0000,0.0000,0.0000,0.0000
1.1000,0.0000,0.0000,64.8530,0.0000,0.0000,84.4993,1.0000,0.0000,0.0000,0.0000,0.0000,0.0000,0.0000
1.1100,0.0000,0.0000,65.6958,0.0000,0.0000,84.1655,1.0000,0.0000,0.0000,0.0000,0.0000,0.0000,0.0000
1.1200,0.0000,0.0000,66.5352,0.0000,0.0000,83.8335,1.0000,0.0000,0.0000,0.0000,0.0000,0.0000,0.0000
1.1300,0.0000,0.0000,67.3714,0.0000,0.0000,83.5034,1.0000,0.0000,0.0000,0.0000,0.0000,0.0000,0.0000
1.1400,0.0000,0.0000,68.2042,0.0000,0.0000,83.1751,1.0000,0.0000,0.0000,0.0000,0.0000,0.0000,0.0000
1.1500,0.0000,0.0000,69.0338,0.0000,0.0000,82.8486,1.0000,0.0000,0.0000,0.0000,0.0000,0.0000,0.0000
1.1600,0.0000,0.0000,69.8601,0.0000,0.0000,82.5240,1.0000,0.0000,0.0000,0.0000,0.0000,0.0000,0.0000
1.1700,0.0000,0.0000,70.6832,0.0000,0.0000,82.2011,1.0000,0.0000,0.0000,0.0000,0.0000,0.0000,0.0000
1.1800,0.0000,0.0000,71.5031,0.0000,0.0000,81.8801,1.0000,0.0000,0.0000,0.0000,0.0000,0.0000,0.0000
1.1900,0.0000,0.0000,72.3197,0.0000,0.0000,81.5607,1.0000,0.0000,0.0000,0.0000,0.0000,0.0000,0.0000
1.2000,0.0000,0.0000,73.1332,0.0000,0.0000,81.2432,1.0000,0.0000,0.0000,0.0000,0.0000,0.0000,0.0000
1.2100,0.0000,0.0000,73.9435,0.0000,0.0000,80.9273,1.0000,0.0000,0.0000,0.0000,0.0000,0.0000,0.0000
1.2200,0.0000,0.0000,74.7507,0.0000,0.0000,80.6132,1.0000,0.0000,0.0000,0.0000,0.0000,0.0000,0.0000
1.2300,0.0000,0.0000,75.5548,0.0000,0.0000,80.3007,1.0000,0.0000,0.0000,0.0000,0.0000,0.0000,0.0000
1.2400,0.0000,0.0000,76.3557,0.0000,0.0000,79.9900,1.0000,0.0000,0.0000,0.0000,0.0000,0.0000,0.0000
1.2500,0.0000,0.0000,77.1535,0.0000,0.0000,79.6808,1.0000,0.0000,0.0000,0.0000,0.0000,0.0000,0.0000
1.2600,0.0000,0.0000,77.9483,0.0000,0.0000,79.3734,1.0000,0.0000,0.0000,0.0000,0.0000,0.0000,0.0000
1.2700,0.0000,0.0000,78.7400,0.0000,0.0000,79.0676,1.0000,0.0000,0.0000,0.0000,0.0000,0.0000,0.0000
1.2800,0.0000,0.0000,79.5286,0.0000,0.0000,78.7633,1.0000,0.0000,0.0000,0.0000,0.0000,0.0000,0.0000
1.2900,0.0000,0.0000,80.3143,0.0000,0.0000,78.4607,1.0000,0.0000,0.0000,0.0000,0.0000,0.0000,0.0000
1.3000,0.0000,0.0000,81.0969,0.0000,0.0000,78.1597,1.0000,0.0000,0.0000,0.0000,0.0000,0.0000,0.0000
1.3100,0.0000,0.0000,81.8765,0.0000,0.0000,77.8602,1.0000,0.0000,0.0000,0.0000,0.0000,0.0000,0.0000
1.3200,0.0000,0.0000,82.6531,0.0000,0.0000,77.5623,1.0000,0.0000,0.0000,0.0000,0.0000,0.0000,0.0000
1.3300,0.0000,0.0000,83.4267,0.0000,0.0000,77.2660,1.0000,0.0000,0.0000,0.0000,0.0000,0.0000,0.0000
1.3400,0.0000,0.0000,84.1974,0.0000,0.0000,76.9711,1.0000,0.0000,0.0000,0.0000,0.0000,0.0000,0.0000
1.3500,0.0000,0.0000,84.9652,0.0000,0.0000,76.6778,1.0000,0.0000,0.0000,0.0000,0.0000,0.0000,0.0000
1.3600,0.0000,0.0000,85.7300,0.0000,0.0000,76.3860,1.0000,0.0000,0.0000,0.0000,0.0000,0.0000,0.0000
1.3700,0.0000,0.0000,86.4919,0.0000,0.0000,76.0957,1.0000,0.0000,0.0000,0.0000,0.0000,0.0000,0.0000
1.3800,0.0000,0.0000,87.2509,0.0000,0.0000,75.8068,1.0000,0.0000,0.0000,0.0000,0.0000,0.0000,0.0000
1.3900,0.0000,0.0000,88.0071,0.0000,0.0000,75.5195,1.0000,0.0000,0.0000,0.0000,0.0000,0.0000,0.0000
1.4000,0.0000,0.0000,88.7604,0.0000,0.0000,75.2335,1.0000,0.0000,0.0000,0.0000,0.0000,0.0000,0.0000
1.4100,0.0000,0.0000,89.5108,0.0000,0.0000,74.9490,1.0000,0.0000,0.0000,0.0000,0.0000,0.0000,0.0000
1.4200,0.0000,0.0000,90.2584,0.0000,0.0000,74.6659,1.0000,0.0000,0.0000,0.0000,0.0000,0.0000,0.0000
1.4300,0.0000,0.0000,91.0032,0.0000,0.0000,74.3843,1.0000,0.0000,0.0000,0.0000,0.0000,0.0000,0.0000
1.4400,0.0000,0.0000,91.7452,0.0000,0.0000,74.1040,1.0000,0.0000,0.0000,0.0000,0.0000,0.0000,0.0000
1.4500,0.0000,0.0000,92.4844,0.0000,0.0000,73.8251,1.0000,0.0000,0.0000,0.0000,0.0000,0.0000,0.0000
1.4600,0.0000,0.0000,93.2208,0.0000,0.0000,73.5476,1.0000,0.0000,0.0000,0.0000,0.0000,0.0000,0.0000
1.4700,0.0000,0.0000,93.9544,0.0000,0.0000,73.2714,1.0000,0.0000,0.0000,0.0000,0.0000,0.0000,0.0000
1.4800,0.0000,0.0000,94.6853,0.0000,0.0000,72.9966,1.0000,0.0000,0.0000,0.0000,0.0000,0.0000,0.0000
1.4900,0.0000,0.0000,95.4134,0.0000,0.0000,72.7231,1.0000,0.0000,0.0000,0.0000,0.0000,0.0000,0.0000
1.5000,0.0000,0.0000,96.1388,0.0000,0.0000,72.4510,1.0000,0.0000,0.0000,0.0000,0.0000,0.0000,0.0000
1.5100,0.0000,0.0000,96.8615,0.0000,0.0000,72.1802,1.0000,0.0000,0.0000,0.0000,0.0000,0.0000,0.0000
1.5200,0.0000,0.0000,97.5815,0.0000,0.0000,71.9106,1.0000,0.0000,0.0000,0.0000,0.0000,0.0000,0.0000
1.5300,0.0000,0.0000,98.2989,0.0000,0.0000,71.6424,1.0000,0.0000,0.0000,0.0000,0.0000,0.0000,0.0000
1.5400,0.0000,0.0000,99.0135,0.0000,0.0000,71.3755,1.0000,0.0000,0.0000,0.0000,0.0000,0.0000,0.0000
1.5500,0.0000,0.0000,99.7255,0.0000,0.0000,71.1098,1.0000,0.0000,0.0000,0.0000,0.0000,0.0000,0.0000
1.5600,0.0000,0.0000,100.4348,0.0000,0.0000,70.8453,1.0000,0.0000,0.0000,0.0000,0.0000,0.0000,0.0000
1.5700,0.0000,0.0000,101.1415,0.0000,0.0000,70.5822,1.0000,0.0000,0.0000,0.0000,0.0000,0.0000,0.0000
1.5800,0.0000,0.0000,101.8456,0.0000,0.0000,70.3202,1.0000,0.0000,0.0000,0.0000,0.0000,0.0000,0.0000
1.5900,0.0000,0.0000,102.5470,0.0000,0.0000,70.0595,1.0000,0.0000,0.0000,0.0000,0.0000,0.0000,0.0000
1.6000,0.0000,0.0000,103.2459,0.0000,0.0000,69.8000,1.0000,0.0000,0.0000,0.0000,0.0000,0.0000,0.0000
1.6100,0.0000,0.0000,103.9422,0.0000,0.0000,69.5417,1.0000,0.0000,0.0000,0.0000,0.0000,0.0000,0.0000
1.6200,0.0000,0.0000,104.6359,0.0000,0.0000,69.2846,1.0000,0.0000,0.0000,0.0000,0.0000,0.0000,0.0000
1.6300,0.0000,0.0000,105.3270,0.0000,0.0000,69.0287,1.0000,0.0000,0.0000,0.0000,0.0000,0.0000,0.0000
1.6400,0.0000,0.0000,106.0156,0.0000,0.0000,68.7740,1.0000,0.0000,0.0000,0.0000,0.0000,0.0000,0.0000
1.6500,0.0000,0.0000,106.7017,0.0000,0.0000,68.5204,1.0000,0.0000,0.0000,0.0000,0.0000,0.0000,0.0000
1.6600,0.0000,0.0000,107.3852,0.0000,0.0000,68.2680,1.0000,0.0000,0.0000,0.0000,0.0000,0.0000,0.0000
1.6700,0.0000,0.0000,108.0662,0.0000,0.0000,68.0167,1.0000,0.0000,0.0000,0.0000,0.0000,0.0000,0.0000
1.6800,0.0000,0.0000,108.7447,0.0000,0.0000,67.7666,1.0000,0.0000,0.0000,0.0000,0.0000,0.0000,0.0000
1.6900,0.0000,0.0000,109.4207,0.0000,0.0000,67.5176,1.0000,0.0000,0.0000,0.0000,0.0000,0.0000,0.0000
1.7000,0.0000,0.0000,110.0942,0.0000,0.0000,67.2697,1.0000,0.0000,0.0000,0.0000,0.0000,0.0000,0.0000
1.7100,0.0000,0.0000,110.7653,0.0000,0.0000,67.0229,1.0000,0.0000,0.0000,0.0000,0.0000,0.0000,0.0000
1.7200,0.0000,0.0000,111.4339,0.0000,0.0000,66.7773,1.0000,0.0000,0.0000,0.0000,0.0000,0.0000,0.0000
1.7300,0.0000,0.0000,112.1000,0.0000,0.0000,66.5327,1.0000,0.0000,0.0000,0.0000,0.0000,0.0000,0.0000
1.7400,0.0000,0.0000,112.7637,0.0000,0.0000,66.2892,1.0000,0.0000,0.0000,0.0000,0.0000,0.0000,0.0000
1.7500,0.0000,0.0000,113.4250,0.0000,0.0000,66.0468,1.0000,0.0000,0.0000,0.0000,0.0000,0.0000,0.0000
1.7600,0.0000,0.0000,114.0838,0.0000,0.0000,65.8054,1.0000,0.0000,0.0000,0.0000,0.0000,0.0000,0.0000
1.7700,0.0000,0.0000,114.7403,0.0000,0.0000,65.5651,1.0000,0.0000,0.0000,0.0000,0.0000,0.0000,0.0000
1.7800,0.0000,0.0000,115.3943,0.0000,0.0000,65.3258,1.0000,0.0000,0.0000,0.0000,0.0000,0.0000,0.0000
1.7900,0.0000,0.0000,116.0460,0.0000,0.0000,65.0876,1.0000,0.0000,0.0000,0.0000,0.0000,0.0000,0.0000
1.8000,0.0000,0.0000,116.6953,0.0000,0.0000,64.8504,1.0000,0.0000,0.0000,0.0000,0.0000,0.0000,0.0000
1.8100,0.0000,0.0000,117.3422,0.0000,0.0000,64.6142,1.0000,0.0000,0.0000,0.0000,0.0000,0.0000,0.0000
1.8200,0.0000,0.0000,117.9868,0.0000,0.0000,64.3791,1.0000,0.0000,0.0000,0.0000,0.0000,0.0000,0.0000
1.8300,0.0000,0.0000,118.6290,0.0000,0.0000,64.1449,1.0000,0.0000,0.0000,0.0000,0.0000,0.0000,0.0000
1.8400,0.0000,0.0000,119.2689,0.0000,0.0000,63.9118,1.0000,0.0000,0.0000,0.0000,0.0000,0.0000,0.0000
1.8500,0.0000,0.0000,119.9065,0.0000,0.0000,63.6796,1.0000,0.0000,0.0000,0.0000,0.0000,0.0000,0.0000
1.8600,0.0000,0.0000,120.5418,0.0000,0.0000,63.4484,1.0000,0.0000,0.0000,0.0000,0.0000,0.0000,0.0000
1.8700,0.0000,0.0000,121.1747,0.0000,0.0000,63.2182,1.0000,0.0000,0.0000,0.0000,0.0000,0.0000,0.0000
1.8800,0.0000,0.0000,121.8054,0.0000,0.0000,62.9890,1.0000,0.0000,0.0000,0.0000,0.0000,0.0000,0.0000
1.8900,0.0000,0.0000,122.4337,0.0000,0.0000,62.7607,1.0000,0.0000,0.0000,0.0000,0.0000,0.0000,0.0000
1.9000,0.0000,0.0000,123.0598,0.0000,0.0000,62.5334,1.0000,0.0000,0.0000,0.0000,0.0000,0.0000,0.0000
1.9100,0.0000,0.0000,123.6836,0.0000,0.0000,62.3070,1.0000,0.0000,0.0000,0.0000,0.0000,0.0000,0.0000
1.9200,0.0000,0.0000,124.3052,0.0000,0.0000,62.0815,1.0000,0.0000,0.0000,0.0000,0.0000,0.0000,0.0000
1.9300,0.0000,0.0000,124.9245,0.0000,0.0000,61.8570,1.0000,0.0000,0.0000,0.0000,0.0000,0.0000,0.0000
1.9400,0.0000,0.0000,125.5416,0.0000,0.0000,61.6334,1.0000,0.0000,0.0000,0.0000,0.0000,0.0000,0.0000
1.9500,0.0000,0.0000,126.1564,0.0000,0.0000,61.4107,1.0000,0.0000,0.0000,0.0000,0.0000,0.0000,0.0000
1.9600,0.0000,0.0000,126.7691,0.0000,0.0000,61.1890,1.0000,0.0000,0.0000,0.0000,0.0000,0.0000,0.0000
1.9700,0.0000,0.0000,127.3795,0.0000,0.0000,60.9681,1.0000,0.0000,0.0000,0.0000,0.0000,0.0000,0.0000
1.9800,0.0000,0.0000,127.9877,0.0000,0.0000,60.7481,1.0000,0.0000,0.0000,0.0000,0.0000,0.0000,0.0000
1.9900,0.0000,0.0000,128.5937,0.0000,0.0000,60.5290,1.0000,0.0000,0.0000,0.0000,0.0000,0.0000,0.0000
2.0000,0.0000,0.0000,129.1976,0.0000,0.0000,60.3108,1.0000,0.0000,0.0000,0.0000,0.0000,0.0000,0.0000
2.0100,0.0000,0.0000,129.7992,0.0000,0.0000,60.0934,1.0000,0.0000,0.0000,0.0000,0.0000,0.0000,0.0000
2.0200,0.0000,0.0000,130.3987,0.0000,0.0000,59.8770,1.0000,0.0000,0.0000,0.0000,0.0000,0.0000,0.0000
2.0300,0.0000,0.0000,130.9960,0.0000,0.0000,59.6613,1.0000,0.0000,0.0000,0.0000,0.0000,0.0000,0.0000
2.0400,0.0000,0.0000,131.5912,0.0000,0.0000,59.4466,1.0000,0.0000,0.0000,0.0000,0.0000,0.0000,0.0000
2.0500,0.0000,0.0000,132.1843,0.0000,0.0000,59.2327,1.0000,0.0000,0.0000,0.0000,0.0000,0.0000,0.0000
2.0600,0.0000,0.0000,132.7752,0.0000,0.0000,59.0196,1.0000,0.0000,0.0000,0.0000,0.0000,0.0000,0.0000
2.0700,0.0000,0.0000,133.3639,0.0000,0.0000,58.8073,1.0000,0.0000,0.0000,0.0000,0.0000,0.0000,0.0000
2.0800,0.0000,0.0000,133.9506,0.0000,0.0000,58.5959,1.0000,0.0000,0.0000,0.0000,0.0000,0.0000,0.0000
2.0900,0.0000,0.0000,134.5352,0.0000,0.0000,58.3853,1.0000,0.0000,0.0000,0.0000,0.0000,0.0000,0.0000
2.1000,0.0000,0.0000,135.1176,0.0000,0.0000,58.1755,1.0000,0.0000,0.0000,0.0000,0.0000,0.0000,0.0000
2.1100,0.0000,0.0000,135.6980,0.0000,0.0000,57.9666,1.0000,0.0000,0.0000,0.0000,0.0000,0.0000,0.0000
2.1200,0.0000,0.0000,136.2763,0.0000,0.0000,57.7584,1.0000,0.0000,0.0000,0.0000,0.0000,0.0000,0.0000
2.1300,0.0000,0.0000,136.8525,0.0000,0.0000,57.5510,1.0000,0.0000,0.0000,0.0000,0.0000,0.0000,0.0000
2.1400,0.0000,0.0000,137.4266,0.0000,0.0000,57.3444,1.0000,0.0000,0.0000,0.0000,0.0000,0.0000,0.0000
2.1500,0.0000,0.0000,137.9987,0.0000,0.0000,57.1386,1.0000,0.0000,0.0000,0.0000,0.0000,0.0000,0.0000
2.1600,0.0000,0.0000,138.5687,0.0000,0.0000,56.9336,1.0000,0.0000,0.0000,0.0000,0.0000,0.0000,0.0000
2.1700,0.0000,0.0000,139.1367,0.0000,0.0000,56.7294,1.0000,0.0000,0.0000,0.0000,0.0000,0.0000,0.0000
2.1800,0.0000,0.0000,139.7026,0.0000,0.0000,56.5259,1.0000,0.0000,0.0000,0.0000,0.0000,0.0000,0.0000
2.1900,0.0000,0.0000,140.2665,0.0000,0.0000,56.3232,1.0000,0.0000,0.0000,0.0000,0.0000,0.0000,0.0000
2.2000,0.0000,0.0000,140.8284,0.0000,0.0000,56.1212,1.0000,0.0000,0.0000,0.0000,0.0000,0.0000,0.0000
2.2100,0.0000,0.0000,141.3883,0.0000,0.0000,55.9200,1.0000,0.0000,0.0000,0.0000,0.0000,0.0000,0.0000
2.2200,0.0000,0.0000,141.9461,0.0000,0.0000,55.7195,1.0000,0.0000,0.0000,0.0000,0.0000,0.0000,0.0000
2.2300,0.0000,0.0000,142.5020,0.0000,0.0000,55.5198,1.0000,0.0000,0.0000,0.0000,0.0000,0.0000,0.0000
2.2400,0.0000,0.0000,143.0558,0.0000,0.0000,55.3208,1.0000,0.0000,0.0000,0.0000,0.0000,0.0000,0.0000
2.2500,0.0000,0.0000,143.6077,0.0000,0.0000,55.1225,1.0000,0.0000,0.0000,0.0000,0.0000,0.0000,0.0000
2.2600,0.0000,0.0000,144.1576,0.0000,0.0000,54.9250,1.0000,0.0000,0.0000,0.0000,0.0000,0.0000,0.0000
2.2700,0.0000,0.0000,144.7056,0.0000,0.0000,54.7281,1.0000,0.0000,0.0000,0.0000,0.0000,0.0000,0.0000
2.2800,0.0000,0.0000,145.2515,0.0000,0.0000,54.5320,1.0000,0.0000,0.0000,0.0000,0.0000,0.0000,0.0000
2.2900,0.0000,0.0000,145.7956,0.0000,0.0000,54.3366,1.0000,0.0000,0.0000,0.0000,0.0000,0.0000,0.0000
2.3000,0.0000,0.0000,146.3376,0.0000,0.0000,54.1419,1.0000,0.0000,0.0000,0.0000,0.0000,0.0000,0.0000
2.3100,0.0000,0.0000,146.8778,0.0000,0.0000,53.9479,1.0000,0.0000,0.0000,0.0000,0.0000,0.0000,0.0000
2.3200,0.0000,0.0000,147.4159,0.0000,0.0000,53.7546,1.0000,0.0000,0.0000,0.0000,0.0000,0.0000,0.0000
2.3300,0.0000,0.0000,147.9522,0.0000,0.0000,53.5620,1.0000,0.0000,0.0000,0.0000,0.0000,0.0000,0.0000
2.3400,0.0000,0.0000,148.4865,0.0000,0.0000,53.3700,1.0000,0.0000,0.0000,0.0000,0.0000,0.0000,0.0000
2.3500,0.0000,0.0000,149.0190,0.0000,0.0000,53.1787,1.0000,0.0000,0.0000,0.0000,0.0000,0.0000,0.0000
2.3600,0.0000,0.0000,149.5495,0.0000,0.0000,52.9881,1.0000,0.0000,0.0000,0.0000,0.0000,0.0000,0.0000
2.3700,0.0000,0.0000,150.0781,0.0000,0.0000,52.7982,1.0000,0.0000,0.0000,0.0000,0.0000,0.0000,0.0000
2.3800,0.0000,0.0000,150.6048,0.0000,0.0000,52.6090,1.0000,0.0000,0.0000,0.0000,0.0000,0.0000,0.0000
2.3900,0.0000,0.0000,151.1297,0.0000,0.0000,52.4203,1.0000,0.0000,0.0000,0.0000,0.0000,0.0000,0.0000
2.4000,0.0000,0.0000,151.6526,0.0000,0.0000,52.2324,1.0000,0.0000,0.0000,0.0000,0.0000,0.0000,0.0000
2.4100,0.0000,0.0000,152.1737,0.0000,0.0000,52.0451,1.0000,0.0000,0.0000,0.0000,0.0000,0.0000,0.0000
2.4200,0.0000,0.0000,152.6929,0.0000,0.0000,51.8584,1.0000,0.0000,0.0000,0.0000,0.0000,0.0000,0.0000
2.4300,0.0000,0.0000,153.2102,0.0000,0.0000,51.6724,1.0000,0.0000,0.0000,0.0000,0.0000,0.0000,0.0000
2.4400,0.0000,0.0000,153.7257,0.0000,0.0000,51.4870,1.0000,0.0000,0.0000,0.0000,0.0000,0.0000,0.0000
2.4500,0.0000,0.0000,154.2394,0.0000,0.0000,51.3023,1.0000,0.0000,0.0000,0.0000,0.0000,0.0000,0.0000
2.4600,0.0000,0.0000,154.7512,0.0000,0.0000,51.1181,1.0000,0.0000,0.0000,0.0000,0.0000,0.0000,0.0000
2.4700,0.0000,0.0000,155.2611,0.0000,0.0000,50.9346,1.0000,0.0000,0.0000,0.0000,0.0000,0.0000,0.0000
2.4800,0.0000,0.0000,155.7692,0.0000,0.0000,50.7517,1.0000,0.0000,0.0000,0.0000,0.0000,0.0000,0.0000
2.4900,0.0000,0.0000,156.2755,0.0000,0.0000,50.5695,1.0000,0.0000,0.0000,0.0000,0.0000,0.0000,0.0000
2.5000,0.0000,0.0000,156.7800,0.0000,0.0000,50.3878,1.0000,0.0000,0.0000,0.0000,0.0000,0.0000,0.0000
2.5100,0.0000,0.0000,157.2827,0.0000,0.0000,50.2067,1.0000,0.0000,0.0000,0.0000,0.0000,0.0000,0.0000
2.5200,0.0000,0.0000,157.7836,0.0000,0.0000,50.0262,1.0000,0.0000,0.0000,0.0000,0.0000,0.0000,0.0000
2.5300,0.0000,0.0000,158.2826,0.0000,0.0000,49.8464,1.0000,0.0000,0.0000,0.0000,0.0000,0.0000,0.0000
2.5400,0.0000,0.0000,158.7799,0.0000,0.0000,49.6671,1.0000,0.0000,0.0000,0.0000,0.0000,0.0000,0.0000
2.5500,0.0000,0.0000,159.2754,0.0000,0.0000,49.4884,1.0000,0.0000,0.0000,0.0000,0.0000,0.0000,0.0000
2.5600,0.0000,0.0000,159.7691,0.0000,0.0000,49.3103,1.0000,0.0000,0.0000,0.0000,0.0000,0.0000,0.0000
2.5700,0.0000,0.0000,160.2610,0.0000,0.0000,49.1328,1.0000,0.0000,0.0000,0.0000,0.0000,0.0000,0.0000
2.5800,0.0000,0.0000,160.7511,0.0000,0.0000,48.9558,1.0000,0.0000,0.0000,0.0000,0.0000,0.0000,0.0000
2.5900,0.0000,0.0000,161.2395,0.0000,0.0000,48.7794,1.0000,0.0000,0.0000,0.0000,0.0000,0.0000,0.0000
2.6000,0.0000,0.0000,161.7261,0.0000,0.0000,48.6036,1.0000,0.0000,0.0000,0.0000,0.0000,0.0000,0.0000
2.6100,0.0000,0.0000,162.2110,0.0000,0.0000,48.4284,1.0000,0.0000,0.0000,0.0000,0.0000,0.0000,0.0000
2.6200,0.0000,0.0000,162.6941,0.0000,0.0000,48.2537,1.0000,0.0000,0.0000,0.0000,0.0000,0.0000,0.0000
2.6300,0.0000,0.0000,163.1755,0.0000,0.0000,48.0796,1.0000,0.0000,0.0000,0.0000,0.0000,0.0000,0.0000
2.6400,0.0000,0.0000,163.6551,0.0000,0.0000,47.9060,1.0000,0.0000,0.0000,0.0000,0.0000,0.0000,0.0000
2.6500,0.0000,0.0000,164.1330,0.0000,0.0000,47.7330,1.0000,0.0000,0.0000,0.0000,0.0000,0.0000,0.0000
2.6600,0.0000,0.0000,164.6092,0.0000,0.0000,47.5605,1.0000,0.0000,0.0000,0.0000,0.0000,0.0000,0.0000
2.6700,0.0000,0.0000,165.0837,0.0000,0.0000,47.3885,1.0000,0.0000,0.0000,0.0000,0.0000,0.0000,0.0000
2.6800,0.0000,0.0000,165.5564,0.0000,0.0000,47.2171,1.0000,0.0000,0.0000,0.0000,0.0000,0.0000,0.0000
2.6900,0.0000,0.0000,166.0274,0.0000,0.0000,47.0462,1.0000,0.0000,0.0000,0.0000,0.0000,0.0000,0.0000
2.7000,0.0000,0.0000,166.4968,0.0000,0.0000,46.8759,1.0000,0.0000,0.0000,0.0000,0.0000,0.0000,0.0000
2.7100,0.0000,0.0000,166.9644,0.0000,0.0000,46.7061,1.0000,0.0000,0.0000,0.0000,0.0000,0.0000,0.0000
2.7200,0.0000,0.0000,167.4303,0.0000,0.0000,46.5368,1.0000,0.0000,0.0000,0.0000,0.0000,0.0000,0.0000
2.7300,0.0000,0.0000,167.8946,0.0000,0.0000,46.3680,1.0000,0.0000,0.0000,0.0000,0.0000,0.0000,0.0000
2.7400,0.0000,0.0000,168.3571,0.0000,0.0000,46.1997,1.0000,0.0000,0.0000,0.0000,0.0000,0.0000,0.0000
2.7500,0.0000,0.0000,168.8180,0.0000,0.0000,46.0320,1.0000,0.0000,0.0000,0.0000,0.0000,0.0000,0.0000
2.7600,0.0000,0.0000,169.2772,0.0000,0.0000,45.8647,1.0000,0.0000,0.0000,0.0000,0.0000,0.0000,0.0000
2.7700,0.0000,0.0000,169.7347,0.0000,0.0000,45.6980,1.0000,0.0000,0.0000,0.0000,0.0000,0.0000,0.0000
2.7800,0.0000,0.0000,170.1906,0.0000,0.0000,45.5318,1.0000,0.0000,0.0000,0.0000,0.0000,0.0000,0.0000
2.7900,0.0000,0.0000,170.6448,0.0000,0.0000,45.3660,1.0000,0.0000,0.0000,0.0000,0.0000,0.0000,0.0000
2.8000,0.0000,0.0000,171.0974,0.0000,0.0000,45.2008,1.0000,0.0000,0.0000,0.0000,0.0000,0.0000,0.0000
2.8100,0.0000,0.0000,171.5483,0.0000,0.0000,45.0360,1.0000,0.0000,0.0000,0.0000,0.0000,0.0000,0.0000
2.8200,0.0000,0.0000,171.9976,0.0000,0.0000,44.8718,1.0000,0.0000,0.0000,0.0000,0.0000,0.0000,0.0000
2.8300,0.0000,0.0000,172.4452,0.0000,0.0000,44.7080,1.0000,0.0000,0.0000,0.0000,0.0000,0.0000,0.0000
2.8400,0.0000,0.0000,172.8912,0.0000,0.0000,44.5447,1.0000,0.0000,0.0000,0.0000,0.0000,0.0000,0.0000
2.8500,0.0000,0.0000,173.3355,0.0000,0.0000,44.3819,1.0000,0.0000,0.0000,0.0000,0.0000,0.0000,0.0000
2.8600,0.0000,0.0000,173.7783,0.0000,0.0000,44.2196,1.0000,0.0000,0.0000,0.0000,0.0000,0.0000,0.0000
2.8700,0.0000,0.0000,174.2194,0.0000,0.0000,44.0577,1.0000,0.0000,0.0000,0.0000,0.0000,0.0000,0.0000
2.8800,0.0000,0.0000,174.6589,0.0000,0.0000,43.8963,1.0000,0.0000,0.0000,0.0000,0.0000,0.0000,0.0000
2.8900,0.0000,0.0000,175.0968,0.0000,0.0000,43.7354,1.0000,0.0000,0.0000,0.0000,0.0000,0.0000,0.0000
2.9000,0.0000,0.0000,175.5331,0.0000,0.0000,43.5749,1.0000,0.0000,0.0000,0.0000,0.0000,0.0000,0.0000
2.9100,0.0000,0.0000,175.9678,0.0000,0.0000,43.4149,1.0000,0.0000,0.0000,0.0000,0.0000,0.0000,0.0000
2.9200,0.0000,0.0000,176.4008,0.0000,0.0000,43.2554,1.0000,0.0000,0.0000,0.0000,0.0000,0.0000,0.0000
2.9300,0.0000,0.0000,176.8323,0.0000,0.0000,43.0963,1.0000,0.0000,0.0000,0.0000,0.0000,0.0000,0.0000
2.9400,0.0000,0.0000,177.2622,0.0000,0.0000,42.9376,1.0000,0.0000,0.0000,0.0000,0.0000,0.0000,0.0000
2.9500,0.0000,0.0000,177.6906,0.0000,0.0000,42.7794,1.0000,0.0000,0.0000,0.0000,0.0000,0.0000,0.0000
2.9600,0.0000,0.0000,178.1173,0.0000,0.0000,42.6217,1.0000,0.0000,0.0000,0.0000,0.0000,0.0000,0.0000
2.9700,0.0000,0.0000,178.5425,0.0000,0.0000,42.4644,1.0000,0.0000,0.0000,0.0000,0.0000,0.0000,0.0000
2.9800,0.0000,0.0000,178.9661,0.0000,0.0000,42.3075,1.0000,0.0000,0.0000,0.0000,0.0000,0.0000,0.0000
2.9900,0.0000,0.0000,179.3881,0.0000,0.0000,42.1511,1.0000,0.0000,0.0000,0.0000,0.0000,0.0000,0.0000
3.0000,0.0000,0.0000,179.8086,0.0000,0.0000,41.9951,1.0000,0.0000,0.0000,0.0000,0.0000,0.0000,0.0000
3.0100,0.0000,0.0000,180.2275,0.0000,0.0000,41.8395,1.0000,0.0000,0.0000,0.0000,0.0000,0.0000,0.0000
3.0200,0.0000,0.0000,180.6448,0.0000,0.0000,41.6844,1.0000,0.0000,0.0000,0.0000,0.0000,0.0000,0.0000
3.0300,0.0000,0.0000,181.0607,0.0000,0.0000,41.5297,1.0000,0.0000,0.0000,0.0000,0.0000,0.0000,0.0000
3.0400,0.0000,0.0000,181.4749,0.0000,0.0000,41.3754,1.0000,0.0000,0.0000,0.0000,0.0000,0.0000,0.0000
3.0500,0.0000,0.0000,181.8876,0.0000,0.0000,41.2215,1.0000,0.0000,0.0000,0.0000,0.0000,0.0000,0.0000
3.0600,0.0000,0.0000,182.2988,0.0000,0.0000,41.0680,1.0000,0.0000,0.0000,0.0000,0.0000,0.0000,0.0000
3.0700,0.0000,0.0000,182.7085,0.0000,0.0000,40.9150,1.0000,0.0000,0.0000,0.0000,0.0000,0.0000,0.0000
3.0800,0.0000,0.0000,183.1166,0.0000,0.0000,40.7624,1.0000,0.0000,0.0000,0.0000,0.0000,0.0000,0.0000
3.0900,0.0000,0.0000,183.5232,0.0000,0.0000,40.6101,1.0000,0.0000,0.0000,0.0000,0.0000,0.0000,0.0000
3.1000,0.0000,0.0000,183.9283,0.0000,0.0000,40.4583,1.0000,0.0000,0.0000,0.0000,0.0000,0.0000,0.0000
3.1100,0.0000,0.0000,184.3319,0.0000,0.0000,40.3069,1.0000,0.0000,0.0000,0.0000,0.0000,0.0000,0.0000
3.1200,0.0000,0.0000,184.7340,0.0000,0.0000,40.1559,1.0000,0.0000,0.0000,0.0000,0.0000,0.0000,0.0000
3.1300,0.0000,0.0000,185.1345,0.0000,0.0000,40.0053,1.0000,0.0000,0.0000,0.0000,0.0000,0.0000,0.0000
3.1400,0.0000,0.0000,185.5336,0.0000,0.0000,39.8551,1.0000,0.0000,0.0000,0.0000,0.0000,0.0000,0.0000
3.1500,0.0000,0.0000,185.9311,0.0000,0.0000,39.7053,1.0000,0.0000,0.0000,0.0000,0.0000,0.0000,0.0000
3.1600,0.0000,0.0000,186.3272,0.0000,0.0000,39.5558,1.0000,0.0000,0.0000,0.0000,0.0000,0.0000,0.0000
3.1700,0.0000,0.0000,186.7217,0.0000,0.0000,39.4068,1.0000,0.0000,0.0000,0.0000,0.0000,0.0000,0.0000
3.1800,0.0000,0.0000,187.1148,0.0000,0.0000,39.2581,1.0000,0.0000,0.0000,0.0000,0.0000,0.0000,0.0000
3.1900,0.0000,0.0000,187.5064,0.0000,0.0000,39.1099,1.0000,0.0000,0.0000,0.0000,0.0000,0.0000,0.0000
3.2000,0.0000,0.0000,187.8965,0.0000,0.0000,38.9620,1.0000,0.0000,0.0000,0.0000,0.0000,0.0000,0.0000
3.2100,0.0000,0.0000,188.2852,0.0000,0.0000,38.8144,1.0000,0.0000,0.0000,0.0000,0.0000,0.0000,0.0000
3.2200,0.0000,0.0000,188.6723,0.0000,0.0000,38.6673,1.0000,0.0000,0.0000,0.0000,0.0000,0.0000,0.0000
3.2300,0.0000,0.0000,189.0580,0.0000,0.0000,38.5205,1.0000,0.0000,0.0000,0.0000,0.0000,0.0000,0.0000
3.2400,0.0000,0.0000,189.4422,0.0000,0.0000,38.3741,1.0000,0.0000,0.0000,0.0000,0.0000,0.0000,0.0000
3.2500,0.0000,0.0000,189.8250,0.0000,0.0000,38.2281,1.0000,0.0000,0.0000,0.0000,0.0000,0.0000,0.0000
3.2600,0.0000,0.0000,190.2063,0.0000,0.0000,38.0825,1.0000,0.0000,0.0000,0.0000,0.0000,0.0000,0.0000
3.2700,0.0000,0.0000,190.5862,0.0000,0.0000,37.9372,1.0000,0.0000,0.0000,0.0000,0.0000,0.0000,0.0000
3.2800,0.0000,0.0000,190.9646,0.0000,0.0000,37.7922,1.0000,0.0000,0.0000,0.0000,0.0000,0.0000,0.0000
3.2900,0.0000,0.0000,191.3415,0.0000,0.0000,37.6477,1.0000,0.0000,0.0000,0.0000,0.0000,0.0000,0.0000
3.3000,0.0000,0.0000,191.7171,0.0000,0.0000,37.5034,1.0000,0.0000,0.0000,0.0000,0.0000,0.0000,0.0000
3.3100,0.0000,0.0000,192.0911,0.0000,0.0000,37.3596,1.0000,0.0000,0.0000,0.0000,0.0000,0.0000,0.0000
3.3200,0.0000,0.0000,192.4638,0.0000,0.0000,37.2161,1.0000,0.0000,0.0000,0.0000,0.0000,0.0000,0.0000
3.3300,0.0000,0.0000,192.8350,0.0000,0.0000,37.0729,1.0000,0.0000,0.0000,0.0000,0.0000,0.0000,0.0000
3.3400,0.0000,0.0000,193.2048,0.0000,0.0000,36.9301,1.0000,0.0000,0.0000,0.0000,0.0000,0.0000,0.0000
3.3500,0.0000,0.0000,193.5731,0.0000,0.0000,36.7876,1.0000,0.0000,0.0000,0.0000,0.0000,0.0000,0.0000
3.3600,0.0000,0.0000,193.9400,0.0000,0.0000,36.6455,1.0000,0.0000,0.0000,0.0000,0.0000,0.0000,0.0000
3.3700,0.0000,0.0000,194.3055,0.0000,0.0000,36.5037,1.0000,0.0000,0.0000,0.0000,0.0000,0.0000,0.0000
3.3800,0.0000,0.0000,194.6696,0.0000,0.0000,36.3623,1.0000,0.0000,0.0000,0.0000,0.0000,0.0000,0.0000
3.3900,0.0000,0.0000,195.0323,0.0000,0.0000,36.2212,1.0000,0.0000,0.0000,0.0000,0.0000,0.0000,0.0000
3.4000,0.0000,0.0000,195.3936,0.0000,0.0000,36.0804,1.0000,0.0000,0.0000,0.0000,0.0000,0.0000,0.0000
3.4100,0.0000,0.0000,195.7535,0.0000,0.0000,35.9400,1.0000,0.0000,0.0000,0.0000,0.0000,0.0000,0.0000
3.4200,0.0000,0.0000,196.1119,0.0000,0.0000,35.7999,1.0000,0.0000,0.0000,0.0000,0.0000,0.0000,0.0000
3.4300,0.0000,0.0000,196.4690,0.0000,0.0000,35.6601,1.0000,0.0000,0.0000,0.0000,0.0000,0.0000,0.0000
3.4400,0.0000,0.0000,196.8247,0.0000,0.0000,35.5207,1.0000,0.0000,0.0000,0.0000,0.0000,0.0000,0.0000
3.4500,0.0000,0.0000,197.1789,0.0000,0.0000,35.3815,1.0000,0.0000,0.0000,0.0000,0.0000,0.0000,0.0000
3.4600,0.0000,0.0000,197.5318,0.0000,0.0000,35.2427,1.0000,0.0000,0.0000,0.0000,0.0000,0.0000,0.0000
3.4700,0.0000,0.0000,197.8833,0.0000,0.0000,35.1043,1.0000,0.0000,0.0000,0.0000,0.0000,0.0000,0.0000
3.4800,0.0000,0.0000,198.2335,0.0000,0.0000,34.9661,1.0000,0.0000,0.0000,0.0000,0.0000,0.0000,0.0000
3.4900,0.0000,0.0000,198.5822,0.0000,0.0000,34.8283,1.0000,0.0000,0.0000,0.0000,0.0000,0.0000,0.0000
3.5000,0.0000,0.0000,198.9296,0.0000,0.0000,34.6907,1.0000,0.0000,0.0000,0.0000,0.0000,0.0000,0.0000
3.5100,0.0000,0.0000,199.2756,0.0000,0.0000,34.5535,1.0000,0.0000,0.0000,0.0000,0.0000,0.0000,0.0000
3.5200,0.0000,0.0000,199.6202,0.0000,0.0000,34.4166,1.0000,0.0000,0.0000,0.0000,0.0000,0.0000,0.0000
3.5300,0.0000,0.0000,199.9634,0.0000,0.0000,34.2800,1.0000,0.0000,0.0000,0.0000,0.0000,0.0000,0.0000
3.5400,0.0000,0.0000,200.3053,0.0000,0.0000,34.1437,1.0000,0.0000,0.0000,0.0000,0.0000,0.0000,0.0000
3.5500,0.0000,0.0000,200.6459,0.0000,0.0000,34.0077,1.0000,0.0000,0.0000,0.0000,0.0000,0.0000,0.0000
3.5600,0.0000,0.0000,200.9850,0.0000,0.0000,33.8720,1.0000,0.0000,0.0000,0.0000,0.0000,0.0000,0.0000
3.5700,0.0000,0.0000,201.3228,0.0000,0.0000,33.7367,1.0000,0.0000,0.0000,0.0000,0.0000,0.0000,0.0000
3.5800,0.0000,0.0000,201.6593,0.0000,0.0000,33.6016,1.0000,0.0000,0.0000,0.0000,0.0000,0.0000,0.0000
3.5900,0.0000,0.0000,201.9944,0.0000,0.0000,33.4668,1.0000,0.0000,0.0000,0.0000,0.0000,0.0000,0.0000
3.6000,0.0000,0.0000,202.3282,0.0000,0.0000,33.3323,1.0000,0.0000,0.0000,0.0000,0.0000,0.0000,0.0000
3.6100,0.0000,0.0000,202.6606,0.0000,0.0000,33.1981,1.0000,0.0000,0.0000,0.0000,0.0000,0.0000,0.0000
3.6200,0.0000,0.0000,202.9917,0.0000,0.0000,33.0642,1.0000,0.0000,0.0000,0.0000,0.0000,0.0000,0.0000
3.6300,0.0000,0.0000,203.3215,0.0000,0.0000,32.9306,1.0000,0.0000,0.0000,0.0000,0.0000,0.0000,0.0000
3.6400,0.0000,0.0000,203.6499,0.0000,0.0000,32.7973,1.0000,0.0000,0.0000,0.0000,0.0000,0.0000,0.0000
3.6500,0.0000,0.0000,203.9770,0.0000,0.0000,32.6642,1.0000,0.0000,0.0000,0.0000,0.0000,0.0000,0.0000
3.6600,0.0000,0.0000,204.3027,0.0000,0.0000,32.5315,1.0000,0.0000,0.0000,0.0000,0.0000,0.0000,0.0000
3.6700,0.0000,0.0000,204.6272,0.0000,0.0000,32.3990,1.0000,0.0000,0.0000,0.0000,0.0000,0.0000,0.0000
3.6800,0.0000,0.0000,204.9503,0.0000,0.0000,32.2668,1.0000,0.0000,0.0000,0.0000,0.0000,0.0000,0.0000
3.6900,0.0000,0.0000,205.2721,0.0000,0.0000,32.1349,1.0000,0.0000,0.0000,0.0000,0.0000,0.0000,0.0000
3.7000,0.0000,0.0000,205.5925,0.0000,0.0000,32.0032,1.0000,0.0000,0.0000,0.0000,0.0000,0.0000,0.0000
3.7100,0.0000,0.0000,205.9117,0.0000,0.0000,31.8719,1.0000,0.0000,0.0000,0.0000,0.0000,0.0000,0.0000
3.7200,0.0000,0.0000,206.2295,0.0000,0.0000,31.7408,1.0000,0.0000,0.0000,0.0000,0.0000,0.0000,0.0000
3.7300,0.0000,0.0000,206.5461,0.0000,0.0000,31.6100,1.0000,0.0000,0.0000,0.0000,0.0000,0.0000,0.0000
3.7400,0.0000,0.0000,206.8613,0.0000,0.0000,31.4794,1.0000,0.0000,0.0000,0.0000,0.0000,0.0000,0.0000
3.7500,0.0000,0.0000,207.1752,0.0000,0.0000,31.3492,1.0000,0.0000,0.0000,0.0000,0.0000,0.0000,0.0000
3.7600,0.0000,0.0000,207.4878,0.0000,0.0000,31.2192,1.0000,0.0000,0.0000,0.0000,0.0000,0.0000,0.0000
3.7700,0.0000,0.0000,207.7992,0.0000,0.0000,31.0894,1.0000,0.0000,0.0000,0.0000,0.0000,0.0000,0.0000
3.7800,0.0000,0.0000,208.1092,0.0000,0.0000,30.9599,1.0000,0.0000,0.0000,0.0000,0.0000,0.0000,0.0000
3.7900,0.0000,0.0000,208.4179,0.0000,0.0000,30.8307,1.0000,0.0000,0.0000,0.0000,0.0000,0.0000,0.0000
3.8000,0.0000,0.0000,208.7254,0.0000,0.0000,30.7018,1.0000,0.0000,0.0000,0.0000,0.0000,0.0000,0.0000
3.8100,0.0000,0.0000,209.0315,0.0000,0.0000,30.5731,1.0000,0.0000,0.0000,0.0000,0.0000,0.0000,0.0000
3.8200,0.0000,0.0000,209.3364,0.0000,0.0000,30.4446,1.0000,0.0000,0.0000,0.0000,0.0000,0.0000,0.0000
3.8300,0.0000,0.0000,209.6400,0.0000,0.0000,30.3165,1.0000,0.0000,0.0000,0.0000,0.0000,0.0000,0.0000
3.8400,0.0000,0.0000,209.9423,0.0000,0.0000,30.1885,1.0000,0.0000,0.0000,0.0000,0.0000,0.0000,0.0000
3.8500,0.0000,0.0000,210.2434,0.0000,0.0000,30.0608,1.0000,0.0000,0.0000,0.0000,0.0000,0.0000,0.0000
3.8600,0.0000,0.0000,210.5431,0.0000,0.0000,29.9334,1.0000,0.0000,0.0000,0.0000,0.0000,0.0000,0.0000
3.8700,0.0000,0.0000,210.8416,0.0000,0.0000,29.8062,1.0000,0.0000,0.0000,0.0000,0.0000,0.0000,0.0000
3.8800,0.0000,0.0000,211.1388,0.0000,0.0000,29.6793,1.0000,0.0000,0.0000,0.0000,0.0000,0.0000,0.0000
3.8900,0.0000,0.0000,211.4348,0.0000,0.0000,29.5526,1.0000,0.0000,0.0000,0.0000,0.0000,0.0000,0.0000
3.9000,0.0000,0.0000,211.7294,0.0000,0.0000,29.4262,1.0000,0.0000,0.0000,0.0000,0.0000,0.0000,0.0000
3.9100,0.0000,0.0000,212.0229,0.0000,0.0000,29.3000,1.0000,0.0000,0.0000,0.0000,0.0000,0.0000,0.0000
3.9200,0.0000,0.0000,212.3150,0.0000,0.0000,29.1741,1.0000,0.0000,0.0000,0.0000,0.0000,0.0000,0.0000
3.9300,0.0000,0.0000,212.6059,0.0000,0.0000,29.0483,1.0000,0.0000,0.0000,0.0000,0.0000,0.0000,0.0000
3.9400,0.0000,0.0000,212.8956,0.0000,0.0000,28.9229,1.0000,0.0000,0.0000,0.0000,0.0000,0.0000,0.0000
3.9500,0.0000,0.0000,213.1840,0.0000,0.0000,28.7976,1.0000,0.0000,0.0000,0.0000,0.0000,0.0000,0.0000
3.9600,0.0000,0.0000,213.4711,0.0000,0.0000,28.6726,1.0000,0.0000,0.0000,0.0000,0.0000,0.0000,0.0000
3.9700,0.0000,0.0000,213.7570,0.0000,0.0000,28.5479,1.0000,0.0000,0.0000,0.0000,0.0000,0.0000,0.0000
3.9800,0.0000,0.0000,214.0417,0.0000,0.0000,28.4233,1.0000,0.0000,0.0000,0.0000,0.0000,0.0000,0.0000
3.9900,0.0000,0.0000,214.3251,0.0000,0.0000,28.2990,1.0000,0.0000,0.0000,0.0000,0.0000,0.0000,0.0000
4.0000,0.0000,0.0000,214.6072,0.0000,0.0000,28.1750,1.0000,0.0000,0.0000,0.0000,0.0000,0.0000,0.0000
4.0100,0.0000,0.0000,214.8881,0.0000,0.0000,28.0511,1.0000,0.0000,0.0000,0.0000,0.0000,0.0000,0.0000
4.0200,0.0000,0.0000,215.1678,0.0000,0.0000,27.9275,1.0000,0.0000,0.0000,0.0000,0.0000,0.0000,0.0000
4.0300,0.0000,0.0000,215.4463,0.0000,0.0000,27.8041,1.0000,0.0000,0.0000,0.0000,0.0000,0.0000,0.0000
4.0400,0.0000,0.0000,215.7235,0.0000,0.0000,27.6809,1.0000,0.0000,0.0000,0.0000,0.0000,0.0000,0.0000
4.0500,0.0000,0.0000,215.9995,0.0000,0.0000,27.5580,1.0000,0.0000,0.0000,0.0000,0.0000,0.0000,0.0000
4.0600,0.0000,0.0000,216.2743,0.0000,0.0000,27.4353,1.0000,0.0000,0.0000,0.0000,0.0000,0.0000,0.0000
4.0700,0.0000,0.0000,216.5478,0.0000,0.0000,27.3128,1.0000,0.0000,0.0000,0.0000,0.0000,0.0000,0.0000
4.0800,0.0000,0.0000,216.8201,0.0000,0.0000,27.1905,1.0000,0.0000,0.0000,0.0000,0.0000,0.0000,0.0000
4.0900,0.0000,0.0000,217.0912,0.0000,0.0000,27.0684,1.0000,0.0000,0.0000,0.0000,0.0000,0.0000,0.0000
4.1000,0.0000,0.0000,217.3611,0.0000,0.0000,26.9466,1.0000,0.0000,0.0000,0.0000,0.0000,0.0000,0.0000
4.1100,0.0000,0.0000,217.6297,0.0000,0.0000,26.8249,1.0000,0.0000,0.0000,0.0000,0.0000,0.0000,0.0000
4.1200,0.0000,0.0000,217.8972,0.0000,0.0000,26.7035,1.0000,0.0000,0.0000,0.0000,0.0000,0.0000,0.0000
4.1300,0.0000,0.0000,218.1634,0.0000,0.0000,26.5823,1.0000,0.0000,0.0000,0.0000,0.0000,0.0000,0.0000
4.1400,0.0000,0.0000,218.4284,0.0000,0.0000,26.4613,1.0000,0.0000,0.0000,0.0000,0.0000,0.0000,0.0000
4.1500,0.0000,0.0000,218.6922,0.0000,0.0000,26.3405,1.0000,0.0000,0.0000,0.0000,0.0000,0.0000,0.0000
4.1600,0.0000,0.0000,218.9548,0.0000,0.0000,26.2199,1.0000,0.0000,0.0000,0.0000,0.0000,0.0000,0.0000
4.1700,0.0000,0.0000,219.2162,0.0000,0.0000,26.0995,1.0000,0.0000,0.0000,0.0000,0.0000,0.0000,0.0000
4.1800,0.0000,0.0000,219.4764,0.0000,0.0000,25.9793,1.0000,0.0000,0.0000,0.0000,0.0000,0.0000,0.0000
4.1900,0.0000,0.0000,219.7354,0.0000,0.0000,25.8594,1.0000,0.0000,0.0000,0.0000,0.0000,0.0000,0.0000
4.2000,0.0000,0.0000,219.9932,0.0000,0.0000,25.7396,1.0000,0.0000,0.0000,0.0000,0.0000,0.0000,0.0000
4.2100,0.0000,0.0000,220.2498,0.0000,0.0000,25.6200,1.0000,0.0000,0.0000,0.0000,0.0000,0.0000,0.0000
4.2200,0.0000,0.0000,220.5052,0.0000,0.0000,25.5007,1.0000,0.0000,0.0000,0.0000,0.0000,0.0000,0.0000
4.2300,0.0000,0.0000,220.7594,0.0000,0.0000,25.3815,1.0000,0.0000,0.0000,0.0000,0.0000,0.0000,0.0000
4.2400,0.0000,0.0000,221.0124,0.0000,0.0000,25.2625,1.0000,0.0000,0.0000,0.0000,0.0000,0.0000,0.0000
4.2500,0.0000,0.0000,221.2643,0.0000,0.0000,25.1438,1.0000,0.0000,0.0000,0.0000,0.0000,0.0000,0.0000
4.2600,0.0000,0.0000,221.5149,0.0000,0.0000,25.0252,1.0000,0.0000,0.0000,0.0000,0.0000,0.0000,0.0000
4.2700,0.0000,0.0000,221.7644,0.0000,0.0000,24.9068,1.0000,0.0000,0.0000,0.0000,0.0000,0.0000,0.0000
4.2800,0.0000,0.0000,222.0126,0.0000,0.0000,24.7886,1.0000,0.0000,0.0000,0.0000,0.0000,0.0000,0.0000
4.2900,0.0000,0.0000,222.2597,0.0000,0.0000,24.6706,1.0000,0.0000,0.0000,0.0000,0.0000,0.0000,0.0000
4.3000,0.0000,0.0000,222.5057,0.0000,0.0000,24.5528,1.0000,0.0000,0.0000,0.0000,0.0000,0.0000,0.0000
4.3100,0.0000,0.0000,222.7504,0.0000,0.0000,24.4352,1.0000,0.0000,0.0000,0.0000,0.0000,0.0000,0.0000
4.3200,0.0000,0.0000,222.9940,0.0000,0.0000,24.3177,1.0000,0.0000,0.0000,0.0000,0.0000,0.0000,0.0000
4.3300,0.0000,0.0000,223.2364,0.0000,0.0000,24.2005,1.0000,0.0000,0.0000,0.0000,0.0000,0.0000,0.0000
4.3400,0.0000,0.0000,223.4776,0.0000,0.0000,24.0834,1.0000,0.0000,0.0000,0.0000,0.0000,0.0000,0.0000
4.3500,0.0000,0.0000,223.7177,0.0000,0.0000,23.9665,1.0000,0.0000,0.0000,0.0000,0.0000,0.0000,0.0000
4.3600,0.0000,0.0000,223.9565,0.0000,0.0000,23.8498,1.0000,0.0000,0.0000,0.0000,0.0000,0.0000,0.0000
4.3700,0.0000,0.0000,224.1943,0.0000,0.0000,23.7333,1.0000,0.0000,0.0000,0.0000,0.0000,0.0000,0.0000
4.3800,0.0000,0.0000,224.4308,0.0000,0.0000,23.6170,1.0000,0.0000,0.0000,0.0000,0.0000,0.0000,0.0000
4.3900,0.0000,0.0000,224.6662,0.0000,0.0000,23.5008,1.0000,0.0000,0.0000,0.0000,0.0000,0.0000,0.0000
4.4000,0.0000,0.0000,224.9005,0.0000,0.0000,23.3848,1.0000,0.0000,0.0000,0.0000,0.0000,0.0000,0.0000
4.4100,0.0000,0.0000,225.1335,0.0000,0.0000,23.2690,1.0000,0.0000,0.0000,0.0000,0.0000,0.0000,0.0000
4.4200,0.0000,0.0000,225.3654,0.0000,0.0000,23.1534,1.0000,0.0000,0.0000,0.0000,0.0000,0.0000,0.0000
4.4300,0.0000,0.0000,225.5962,0.0000,0.0000,23.0380,1.0000,0.0000,0.0000,0.0000,0.0000,0.0000,0.0000
4.4400,0.0000,0.0000,225.8258,0.0000,0.0000,22.9227,1.0000,0.0000,0.0000,0.0000,0.0000,0.0000,0.0000
4.4500,0.0000,0.0000,226.0543,0.0000,0.0000,22.8076,1.0000,0.0000,0.0000,0.0000,0.0000,0.0000,0.0000
4.4600,0.0000,0.0000,226.2816,0.0000,0.0000,22.6926,1.0000,0.0000,0.0000,0.0000,0.0000,0.0000,0.0000
4.4700,0.0000,0.0000,226.5078,0.0000,0.0000,22.5779,1.0000,0.0000,0.0000,0.0000,0.0000,0.0000,0.0000
4.4800,0.0000,0.0000,226.7328,0.0000,0.0000,22.4633,1.0000,0.0000,0.0000,0.0000,0.0000,0.0000,0.0000
4.4900,0.0000,0.0000,226.9566,0.0000,0.0000,22.3488,1.0000,0.0000,0.0000,0.0000,0.0000,0.0000,0.0000
4.5000,0.0000,0.0000,227.1794,0.0000,0.0000,22.2346,1.0000,0.0000,0.0000,0.0000,0.0000,0.0000,0.0000
4.5100,0.0000,0.0000,227.4009,0.0000,0.0000,22.1205,1.0000,0.0000,0.0000,0.0000,0.0000,0.0000,0.0000
4.5200,0.0000,0.0000,227.6214,0.0000,0.0000,22.0065,1.0000,0.0000,0.0000,0.0000,0.0000,0.0000,0.0000
4.5300,0.0000,0.0000,227.8407,0.0000,0.0000,21.8928,1.0000,0.0000,0.0000,0.0000,0.0000,0.0000,0.0000
4.5400,0.0000,0.0000,228.0589,0.0000,0.0000,21.7792,1.0000,0.0000,0.0000,0.0000,0.0000,0.0000,0.0000
4.5500,0.0000,0.0000,228.2759,0.0000,0.0000,21.6657,1.0000,0.0000,0.0000,0.0000,0.0000,0.0000,0.0000
4.5600,0.0000,0.0000,228.4918,0.0000,0.0000,21.5524,1.0000,0.0000,0.0000,0.0000,0.0000,0.0000,0.0000
4.5700,0.0000,0.0000,228.7066,0.0000,0.0000,21.4393,1.0000,0.0000,0.0000,0.0000,0.0000,0.0000,0.0000
4.5800,0.0000,0.0000,228.9202,0.0000,0.0000,21.3263,1.0000,0.0000,0.0000,0.0000,0.0000,0.0000,0.0000
4.5900,0.0000,0.0000,229.1327,0.0000,0.0000,21.2135,1.0000,0.0000,0.0000,0.0000,0.0000,0.0000,0.0000
4.6000,0.0000,0.0000,229.3441,0.0000,0.0000,21.1009,1.0000,0.0000,0.0000,0.0000,0.0000,0.0000,0.0000
4.6100,0.0000,0.0000,229.5544,0.0000,0.0000,20.9884,1.0000,0.0000,0.0000,0.0000,0.0000,0.0000,0.0000
4.6200,0.0000,0.0000,229.7635,0.0000,0.0000,20.8760,1.0000,0.0000,0.0000,0.0000,0.0000,0.0000,0.0000
4.6300,0.0000,0.0000,229.9715,0.0000,0.0000,20.7638,1.0000,0.0000,0.0000,0.0000,0.0000,0.0000,0.0000
4.6400,0.0000,0.0000,230.1784,0.0000,0.0000,20.6518,1.0000,0.0000,0.0000,0.0000,0.0000,0.0000,0.0000
4.6500,0.0000,0.0000,230.3842,0.0000,0.0000,20.5399,1.0000,0.0000,0.0000,0.0000,0.0000,0.0000,0.0000
4.6600,0.0000,0.0000,230.5888,0.0000,0.0000,20.4282,1.0000,0.0000,0.0000,0.0000,0.0000,0.0000,0.0000
4.6700,0.0000,0.0000,230.7924,0.0000,0.0000,20.3166,1.0000,0.0000,0.0000,0.0000,0.0000,0.0000,0.0000
4.6800,0.0000,0.0000,230.9948,0.0000,0.0000,20.2051,1.0000,0.0000,0.0000,0.0000,0.0000,0.0000,0.0000
4.6900,0.0000,0.0000,231.1961,0.0000,0.0000,20.0938,1.0000,0.0000,0.0000,0.0000,0.0000,0.0000,0.0000
4.7000,0.0000,0.0000,231.3963,0.0000,0.0000,19.9827,1.0000,0.0000,0.0000,0.0000,0.0000,0.0000,0.0000
4.7100,0.0000,0.0000,231.5954,0.0000,0.0000,19.8716,1.0000,0.0000,0.0000,0.0000,0.0000,0.0000,0.0000
4.7200,0.0000,0.0000,231.7934,0.0000,0.0000,19.7608,1.0000,0.0000,0.0000,0.0000,0.0000,0.0000,0.0000
4.7300,0.0000,0.0000,231.9902,0.0000,0.0000,19.6501,1.0000,0.0000,0.0000,0.0000,0.0000,0.0000,0.0000
4.7400,0.0000,0.0000,232.1860,0.0000,0.0000,19.5395,1.0000,0.0000,0.0000,0.0000,0.0000,0.0000,0.0000
4.7500,0.0000,0.0000,232.3807,0.0000,0.0000,19.4290,1.0000,0.0000,0.0000,0.0000,0.0000,0.0000,0.0000
4.7600,0.0000,0.0000,232.5742,0.0000,0.0000,19.3187,1.0000,0.0000,0.0000,0.0000,0.0000,0.0000,0.0000
4.7700,0.0000,0.0000,232.7667,0.0000,0.0000,19.2086,1.0000,0.0000,0.0000,0.0000,0.0000,0.0000,0.0000
4.7800,0.0000,0.0000,232.9580,0.0000,0.0000,19.0986,1.0000,0.0000,0.0000,0.0000,0.0000,0.0000,0.0000
4.7900,0.0000,0.0000,233.1483,0.0000,0.0000,18.9887,1.0000,0.0000,0.0000,0.0000,0.0000,0.0000,0.0000
4.8000,0.0000,0.0000,233.3374,0.0000,0.0000,18.8789,1.0000,0.0000,0.0000,0.0000,0.0000,0.0000,0.0000
4.8100,0.0000,0.0000,233.5255,0.0000,0.0000,18.7693,1.0000,0.0000,0.0000,0.0000,0.0000,0.0000,0.0000
4.8200,0.0000,0.0000,233.7124,0.0000,0.0000,18.6598,1.0000,0.0000,0.0000,0.0000,0.0000,0.0000,0.0000
4.8300,0.0000,0.0000,233.8983,0.0000,0.0000,18.5505,1.0000,0.0000,0.0000,0.0000,0.0000,0.0000,0.0000
4.8400,0.0000,0.0000,234.0831,0.0000,0.0000,18.4412,1.0000,0.0000,0.0000,0.0000,0.0000,0.0000,0.0000
4.8500,0.0000,0.0000,234.2668,0.0000,0.0000,18.3322,1.0000,0.0000,0.0000,0.0000,0.0000,0.0000,0.0000
4.8600,0.0000,0.0000,234.4494,0.0000,0.0000,18.2232,1.0000,0.0000,0.0000,0.0000,0.0000,0.0000,0.0000
4.8700,0.0000,0.0000,234.6309,0.0000,0.0000,18.1144,1.0000,0.0000,0.0000,0.0000,0.0000,0.0000,0.0000
4.8800,0.0000,0.0000,234.8113,0.0000,0.0000,18.0057,1.0000,0.0000,0.0000,0.0000,0.0000,0.0000,0.0000
4.8900,0.0000,0.0000,234.9906,0.0000,0.0000,17.8971,1.0000,0.0000,0.0000,0.0000,0.0000,0.0000,0.0000
4.9000,0.0000,0.0000,235.1689,0.0000,0.0000,17.7887,1.0000,0.0000,0.0000,0.0000,0.0000,0.0000,0.0000
4.9100,0.0000,0.0000,235.3460,0.0000,0.0000,17.6803,1.0000,0.0000,0.0000,0.0000,0.0000,0.0000,0.0000
4.9200,0.0000,0.0000,235.5221,0.0000,0.0000,17.5721,1.0000,0.0000,0.0000,0.0000,0.0000,0.0000,0.0000
4.9300,0.0000,0.0000,235.6971,0.0000,0.0000,17.4641,1.0000,0.0000,0.0000,0.0000,0.0000,0.0000,0.0000
4.9400,0.0000,0.0000,235.8710,0.0000,0.0000,17.3561,1.0000,0.0000,0.0000,0.0000,0.0000,0.0000,0.0000
4.9500,0.0000,0.0000,236.0439,0.0000,0.0000,17.2483,1.0000,0.0000,0.0000,0.0000,0.0000,0.0000,0.0000
4.9600,0.0000,0.0000,236.2156,0.0000,0.0000,17.1406,1.0000,0.0000,0.0000,0.0000,0.0000,0.0000,0.0000
4.9700,0.0000,0.0000,236.3863,0.0000,0.0000,17.0330,1.0000,0.0000,0.0000,0.0000,0.0000,0.0000,0.0000
4.9800,0.0000,0.0000,236.5560,0.0000,0.0000,16.9255,1.0000,0.0000,0.0000,0.0000,0.0000,0.0000,0.0000
4.9900,0.0000,0.0000,236.7245,0.0000,0.0000,16.8182,1.0000,0.0000,0.0000,0.0000,0.0000,0.0000,0.0000
5.0000,0.0000,0.0000,236.8920,0.0000,0.0000,16.7110,1.0000,0.0000,0.0000,0.0000,0.0000,0.0000,0.0000
